,City,Max Temp,Humidity,Cloudiness,Wind Speed,Country,Date,Lat,Lng
0,Karratha,101.84,28,47,22.95,AU,1638768846,-20.7377,116.8463
1,San Cristobal,71.78,80,100,2.04,VE,1638768746,7.7669,-72.225
2,Province of Mantua,40.44,91,91,3.0,IT,1638768846,45.1667,10.7833
3,Maroantsetra,80.24,74,68,5.17,MG,1638768847,-15.4333,49.7333
4,Sinop Province,41.43,70,17,12.12,TR,1638768847,41.7711,34.8709
5,Boa Vista,78.78,78,75,6.91,BR,1638768848,2.8197,-60.6733
6,Hermanus,59.9,88,100,7.25,ZA,1638768848,-34.4187,19.2345
7,Ushuaia,42.46,65,20,12.66,AR,1638768849,-54.8,-68.3
8,Rikitea,76.24,76,98,7.99,PF,1638768737,-23.1203,-134.9692
9,Avarua,77.05,88,20,8.05,CK,1638768850,-21.2078,-159.775
10,Mataura,55.47,51,59,8.52,NZ,1638768850,-46.1927,168.8643
11,Kaukauna,34.39,92,90,4.0,US,1638768845,44.278,-88.272
12,São Francisco do Conde,77.02,96,13,0.81,BR,1638768851,-12.6275,-38.68
13,Albany,42.31,60,100,1.99,US,1638768851,42.6001,-73.9662
14,Nouadhibou,66.6,47,56,13.4,MR,1638768851,20.931,-17.0347
15,Saint-Philippe,85.55,71,15,11.61,RE,1638768852,-21.3585,55.7679
16,Boralday,37.26,87,90,2.24,KZ,1638768852,43.3578,76.8594
17,Severo-Kuril'sk,35.08,86,91,16.37,RU,1638768853,50.6789,156.125
18,Kuna,36.79,68,1,1.99,US,1638768605,43.4918,-116.4201
19,San Patricio,75.88,88,100,15.37,US,1638768570,28.017,-97.5169
20,Nikolskoye,-3.6,96,7,4.81,RU,1638768854,59.7035,30.7861
21,Bredasdorp,59.29,90,100,7.45,ZA,1638768853,-34.5322,20.0403
22,Shache,38.73,23,100,0.69,CN,1638768854,38.4167,77.2406
23,Melilla,57.58,67,20,16.11,ES,1638768855,35.2937,-2.9383
24,Tiksi,-22.81,96,100,8.48,RU,1638768855,71.6872,128.8694
25,Shahr-e Bābak,52.12,36,45,10.89,IR,1638768855,30.1165,55.1186
26,Busselton,78.15,37,22,5.99,AU,1638768791,-33.65,115.3333
27,Lagos,80.92,91,22,2.93,NG,1638768706,6.5833,3.75
28,Pacific Grove,57.61,91,1,1.01,US,1638768856,36.6177,-121.9166
29,Lebu,55.24,85,1,1.88,CL,1638768857,-37.6167,-73.65
30,Mildura,89.56,9,91,3.44,AU,1638768857,-34.2,142.15
31,Kapaa,75.52,76,20,4.0,US,1638768672,22.0752,-159.319
32,Narsaq,25.02,82,79,11.32,GL,1638768858,60.9167,-46.05
33,Talaya,-40.0,100,57,0.4,RU,1638768858,61.3833,152.75
34,Tuscaloosa,66.85,83,20,9.22,US,1638768858,33.2098,-87.5692
35,Bethel,50.58,73,90,1.01,US,1638768859,41.3712,-73.414
36,Hualmay,64.87,91,97,7.45,PE,1638768859,-11.0964,-77.6139
37,Punta Arenas,43.23,75,99,4.85,CL,1638768636,-53.15,-70.9167
38,Tasiilaq,30.36,97,100,14.94,GL,1638768737,65.6145,-37.6368
39,Bulgan,29.14,27,72,3.11,MN,1638768860,48.8125,103.5347
40,Qaanaaq,20.88,78,100,7.07,GL,1638768861,77.484,-69.3632
41,Darnah,58.69,69,9,18.9,LY,1638768861,32.767,22.6367
42,Port Alfred,69.82,81,80,16.75,ZA,1638768861,-33.5906,26.891
43,Cherskiy,-29.63,97,100,3.56,RU,1638768862,68.75,161.3
44,Klaksvík,38.32,69,100,32.26,FO,1638768862,62.2266,-6.589
45,Port Elizabeth,68.09,88,0,5.75,ZA,1638768863,-33.918,25.5701
46,Lata,51.82,96,37,2.24,PT,1638768863,40.1629,-8.3327
47,Cape Town,60.12,91,75,1.01,ZA,1638768659,-33.9258,18.4232
48,Norman Wells,-29.16,68,40,2.3,CA,1638768864,65.282,-126.8329
49,Yulara,93.04,24,0,6.91,AU,1638768864,-25.2406,130.9889
50,Odoyev,25.43,87,100,5.44,RU,1638768864,53.9393,36.6864
51,Bundaberg,83.21,67,75,3.0,AU,1638768736,-24.85,152.35
52,Les Cayes,75.99,78,38,3.53,HT,1638768865,18.2,-73.75
53,New Norfolk,75.92,41,86,10.0,AU,1638768865,-42.7826,147.0587
54,Lodja,72.59,94,99,0.13,CD,1638768866,-3.4833,23.4333
55,Puerto Carreño,77.72,70,95,7.16,CO,1638768852,6.189,-67.4859
56,Hithadhoo,81.46,78,100,12.46,MV,1638768812,-0.6,73.0833
57,Kazachinskoye,33.62,88,100,12.57,RU,1638768867,57.6953,93.2761
58,Lavrentiya,24.96,96,100,12.01,RU,1638768867,65.5833,-171.0
59,Atchison,45.77,53,100,23.67,US,1638768867,39.563,-95.1216
60,Acarí,70.2,79,100,3.89,PE,1638768868,-15.4311,-74.6158
61,Gallup,40.01,58,1,4.61,US,1638768868,35.5281,-108.7426
62,Ribeira Grande,63.64,71,86,10.42,PT,1638768869,38.5167,-28.7
63,Kodinsk,26.92,96,100,3.38,RU,1638768869,58.6881,99.1844
64,Clyde River,10.63,85,100,23.02,CA,1638768870,70.4692,-68.5914
65,Hofn,41.88,96,100,21.68,IS,1638768870,64.2539,-15.2082
66,Castro,58.96,97,80,3.44,BR,1638768870,-24.7911,-50.0119
67,East London,68.94,88,20,10.36,ZA,1638768871,-33.0153,27.9116
68,Jasidih,78.39,48,2,5.66,IN,1638768871,24.5167,86.65
69,Pochutla,74.82,75,0,3.87,MX,1638768872,15.7432,-96.4661
70,Hobart,76.26,47,75,5.99,AU,1638768712,-42.8794,147.3294
71,Butaritari,82.02,78,98,15.01,KI,1638768872,3.0707,172.7902
72,Carnarvon,82.47,61,0,21.85,AU,1638768873,-24.8667,113.6333
73,Rio Verde de Mato Grosso,72.34,93,70,4.63,BR,1638768873,-18.9181,-54.8442
74,Fortuna,49.66,67,93,4.59,US,1638768873,40.5982,-124.1573
75,Bara,69.12,24,79,6.26,NG,1638768874,10.3744,10.7288
76,Bluff,55.8,56,7,23.02,NZ,1638768874,-46.6,168.3333
77,Bilma,60.91,22,1,7.18,NE,1638768875,18.6853,12.9164
78,Torbay,30.67,80,40,14.97,CA,1638768602,47.6666,-52.7314
79,Esperance,66.04,67,88,17.78,AU,1638768876,-33.8667,121.9
80,Upernavik,29.05,81,100,15.68,GL,1638768876,72.7868,-56.1549
81,Port Lincoln,65.97,60,39,18.01,AU,1638768877,-34.7333,135.8667
82,Saint-Joseph,84.56,69,9,10.42,RE,1638768877,-21.3667,55.6167
83,Hailar,19.08,80,5,10.98,CN,1638768877,49.2,119.7
84,Hasaki,55.29,59,100,10.36,JP,1638768878,35.7333,140.8333
85,Usinsk,2.43,98,99,11.72,RU,1638768878,65.9939,57.5281
86,Grindavik,39.15,87,20,14.97,IS,1638768878,63.8424,-22.4338
87,Vestmannaeyjar,42.91,57,30,15.5,IS,1638768879,63.4427,-20.2734
88,Bengkulu,84.56,71,98,12.77,ID,1638768880,-3.8004,102.2655
89,Thompson,-23.64,76,1,8.05,CA,1638768880,55.7435,-97.8558
90,Bassano,3.7,89,84,6.44,CA,1638768881,50.7834,-112.4685
91,Mount Isa,92.97,31,69,11.5,AU,1638768881,-20.7333,139.5
92,Ust'-Barguzin,26.89,77,56,5.68,RU,1638768882,53.45,108.9833
93,Kruisfontein,65.88,84,87,19.04,ZA,1638768882,-34.0033,24.7314
94,Maniitsoq,25.52,72,100,30.2,GL,1638768883,65.4167,-52.9
95,Liverpool,41.52,88,100,4.0,GB,1638768569,53.4106,-2.9779
96,Tuktoyaktuk,-7.6,71,1,13.8,CA,1638768883,69.4541,-133.0374
97,Gympie,78.31,65,92,7.56,AU,1638768884,-26.1898,152.665
98,Rolla,55.47,71,75,20.71,US,1638768884,37.9514,-91.7713
99,Martapura,80.69,83,40,9.22,ID,1638768885,-3.4167,114.85
100,San Vicente,63.73,89,10,4.23,AR,1638768885,-26.6167,-54.1333
101,Forio,46.69,68,93,10.22,IT,1638768885,40.7342,13.8646
102,Hargeisa,60.93,69,8,7.96,SO,1638768587,9.56,44.065
103,Half Moon Bay,56.62,92,90,11.5,US,1638768747,37.4636,-122.4286
104,Tsimmerbude,23.05,90,99,13.73,RU,1638768886,54.675,20.1347
105,Chernyshevskiy,-18.33,98,67,5.7,RU,1638768887,63.0128,112.4714
106,Lorengau,81.9,84,100,13.0,PG,1638768887,-2.0226,147.2712
107,Cascavel,66.2,66,27,3.0,BR,1638768887,-24.9558,-53.4553
108,Östersund,10.85,79,90,10.36,SE,1638768888,63.1792,14.6357
109,Loralai,52.66,23,0,2.64,PK,1638768888,30.3705,68.598
110,Hamilton,61.65,93,90,1.01,US,1638768889,39.1834,-84.5333
111,Yellowknife,-22.45,81,1,2.3,CA,1638768791,62.456,-114.3525
112,Labuhan,80.85,78,98,4.29,ID,1638768889,-6.8844,112.2051
113,Oddur,78.1,55,16,15.73,SO,1638768890,4.1213,43.8894
114,Atuona,78.51,78,7,18.81,PF,1638768890,-9.8,-139.0333
115,Muyezerskiy,1.27,100,87,2.8,RU,1638768891,63.9333,31.65
116,Tolaga Bay,70.77,75,92,10.07,NZ,1638768891,-38.3667,178.3
117,Palmer,40.8,66,90,0.0,US,1638768864,42.1584,-72.3287
118,Alekseyevsk,21.18,93,100,2.95,RU,1638768892,57.8406,108.3492
119,Paamiut,23.79,70,100,12.5,GL,1638768893,61.994,-49.6678
120,Pangnirtung,4.66,98,100,7.31,CA,1638768893,66.1451,-65.7125
121,Sambava,80.89,71,27,10.07,MG,1638768893,-14.2667,50.1667
122,Batagay-Alyta,-18.54,99,100,1.25,RU,1638768894,67.8006,130.4114
123,Port Hedland,102.25,27,35,17.27,AU,1638768894,-20.3167,118.5667
124,Puerto Baquerizo Moreno,67.08,90,77,9.33,EC,1638768895,-0.9,-89.6
125,Qaqortoq,25.3,73,73,18.75,GL,1638768895,60.7167,-46.0333
126,Laas,27.48,93,88,6.67,IT,1638768895,46.6166,10.7002
127,Lüderitz,65.77,66,0,13.69,NA,1638768896,-26.6481,15.1594
128,Khatanga,-11.74,96,100,9.01,RU,1638768896,71.9667,102.5
129,George Town,85.98,66,20,8.01,MY,1638768843,5.4112,100.3354
130,Zhaotong,52.97,67,65,2.46,CN,1638768897,27.3167,103.7167
131,Alofi,80.49,74,75,14.97,NU,1638768897,-19.0595,-169.9187
132,Ancud,58.42,82,0,2.26,CL,1638768898,-41.8697,-73.8203
133,Praia da Vitória,59.76,82,40,5.66,PT,1638768899,38.7333,-27.0667
134,Bowen,86.22,59,27,20.54,AU,1638768899,-20.0167,148.2333
135,Mayo,49.86,83,90,1.01,US,1638768900,38.8876,-76.5119
136,Saint George,58.35,40,1,1.01,US,1638768900,37.1041,-113.5841
137,Necochea,52.03,85,0,8.14,AR,1638768900,-38.5473,-58.7368
138,Portland,42.19,91,86,1.01,US,1638768470,45.5234,-122.6762
139,Rome,48.06,54,90,13.8,US,1638768901,43.2128,-75.4557
140,‘Āhuimanu,73.11,78,100,15.26,US,1638768901,21.4447,-157.8378
141,Dolní Bousov,35.6,91,100,7.29,CZ,1638768902,50.4383,15.1281
142,Kaitangata,52.93,59,75,9.84,NZ,1638768811,-46.2817,169.8464
143,Cabedelo,79.47,81,33,13.51,BR,1638768660,-6.9811,-34.8339
144,Vaini,80.76,89,40,10.36,TO,1638768903,-21.2,-175.2
145,Kuah,84.2,58,20,9.22,MY,1638768903,6.3265,99.8432
146,Calvinia,55.24,80,68,3.51,ZA,1638768904,-31.4707,19.776
147,Xihe,65.37,23,0,8.99,CN,1638768905,31.6864,113.4659
148,Esim,79.02,86,36,6.29,GH,1638768905,4.8699,-2.2405
149,Westport,52.81,79,90,1.01,US,1638768906,41.1415,-73.3579
150,Sola,80.1,78,72,8.99,VU,1638768906,-13.8833,167.55
151,Lázaro Cárdenas,75.15,87,83,3.56,MX,1638768907,17.9583,-102.2
152,Caçu,73.56,82,89,1.81,BR,1638768908,-18.5567,-51.1308
153,Coahuayana Viejo,72.81,94,100,3.42,MX,1638768908,18.7333,-103.6833
154,Mackay,88.68,62,37,16.11,AU,1638768789,-21.15,149.2
155,Antofagasta,62.4,74,79,2.48,CL,1638768909,-23.65,-70.4
156,Mahébourg,82.69,65,40,13.8,MU,1638768888,-20.4081,57.7
157,Dikson,-16.1,99,92,8.14,RU,1638768822,73.5069,80.5464
158,Meulaboh,84.83,66,51,4.68,ID,1638768910,4.1363,96.1285
159,Puerto Escondido,76.03,78,1,5.75,MX,1638768703,15.85,-97.0667
160,Ahipara,70.9,77,99,9.86,NZ,1638768910,-35.1667,173.1667
161,Jamestown,46.33,86,90,8.01,US,1638768911,42.097,-79.2353
162,Jumla,46.51,85,65,5.99,NP,1638768911,29.2747,82.1838
163,Tūkrah,58.32,59,0,18.37,LY,1638768912,32.5341,20.5791
164,Wajir,81.1,60,15,12.37,KE,1638768795,1.7471,40.0573
165,Puerto Ayora,66.94,91,53,6.85,EC,1638768912,-0.7393,-90.3518
166,Namatanai,84.79,69,53,5.77,PG,1638768913,-3.6667,152.4333
167,Riyadh,62.65,31,0,4.61,SA,1638768655,24.6877,46.7219
168,Linhares,69.73,97,83,3.0,BR,1638768672,-19.3911,-40.0722
169,Peterhead,39.6,84,100,31.27,GB,1638768914,57.5058,-1.7981
170,Fare,80.38,76,28,14.52,PF,1638768914,-16.7,-151.0167
171,Kutum,64.04,20,2,5.3,SD,1638768815,14.2,24.6667
172,Baruun-Urt,26.49,50,0,20.13,MN,1638768915,46.6806,113.2792
173,Kapit,76.37,97,100,2.33,MY,1638768915,2.0167,112.9333
174,Rørvik,17.71,62,0,14.97,NO,1638768915,64.8621,11.2373
175,Armidale,62.82,71,96,5.48,AU,1638768916,-30.5167,151.65
176,Rawson,62.65,66,2,6.96,AR,1638768916,-43.3002,-65.1023
177,Tezu,78.91,41,100,2.17,IN,1638768917,27.9167,96.1667
178,Elizabeth City,54.01,90,90,1.99,US,1638768918,36.2946,-76.2511
179,Bichena,59.09,36,1,4.47,ET,1638768918,10.45,38.2
180,Hilo,74.93,89,40,10.36,US,1638768578,19.7297,-155.09
181,Amapá,71.01,99,88,1.59,BR,1638768843,1.0,-52.0
182,Laguna,53.44,100,1,4.61,US,1638768919,38.421,-121.4238
183,Oranjestad,80.55,83,40,17.27,AW,1638768919,12.524,-70.027
184,Provideniya,18.05,96,84,7.67,RU,1638768920,64.3833,-173.3
185,Solec Kujawski,32.88,71,75,5.01,PL,1638768920,53.0837,18.2257
186,Cockburn Town,80.47,77,42,20.33,TC,1638768669,21.4612,-71.1419
187,Praxédis Guerrero,62.15,29,0,5.88,MX,1638768921,31.3667,-106.0167
188,Felipe Carrillo Puerto,70.81,99,9,2.24,MX,1638768922,19.5833,-88.05
189,Souillac,82.78,65,40,13.8,MU,1638768922,-20.5167,57.5167
190,Halifax,26.6,88,87,3.44,CA,1638768817,44.6453,-63.5724
191,Vostok,30.13,92,100,10.11,RU,1638768923,46.4856,135.8833
192,Geraldton,84.61,42,0,25.32,AU,1638768801,-28.7667,114.6
193,Jieshou,60.98,21,0,13.94,CN,1638768924,33.2634,115.3611
194,Constitución,55.36,92,6,7.38,CL,1638768682,-35.3333,-72.4167
195,Codrington,66.94,59,54,19.69,AU,1638768924,-38.2667,141.9667
196,Nioro,71.67,20,80,5.88,GM,1638768926,13.35,-15.75
197,Barrow,19.42,86,75,20.71,US,1638768926,71.2906,-156.7887
198,Diffa,68.47,30,90,9.48,NE,1638768926,13.3154,12.6113
199,Cidreira,68.9,86,72,11.92,BR,1638768743,-30.1811,-50.2056
200,Talnakh,-14.8,99,100,13.73,RU,1638768927,69.4865,88.3972
201,Portree,43.52,94,100,22.68,GB,1638768928,57.4129,-6.1942
202,Klichka,17.71,80,6,6.31,RU,1638768928,50.4457,117.996
203,Ubari,48.87,24,0,6.8,LY,1638768928,26.5921,12.7805
204,Altamira,72.16,98,87,1.97,BR,1638768929,-3.2033,-52.2064
205,Dalmau,79.02,42,25,4.25,IN,1638768929,26.0667,81.0333
206,Ankara,44.2,87,8,1.99,TR,1638768759,39.9199,32.8543
207,Tazovsky,-9.58,85,100,16.49,RU,1638768930,67.4667,78.7
208,Dolores,55.69,94,0,5.14,AR,1638768930,-36.3132,-57.6792
209,Pringsewu,84.2,74,98,2.48,ID,1638768931,-5.3582,104.9744
210,Walvis Bay,56.08,87,0,3.44,NA,1638768931,-22.9575,14.5053
211,Abu Kamal,53.46,48,0,5.23,SY,1638768932,34.4506,40.9171
212,Calama,56.44,23,76,5.12,CL,1638768692,-22.4667,-68.9333
213,Chokurdakh,-44.03,99,63,5.77,RU,1638768933,70.6333,147.9167
214,Lompoc,61.79,95,1,13.8,US,1638768933,34.6391,-120.4579
215,Brigantine,55.45,91,90,5.75,US,1638768812,39.4101,-74.3646
216,Marawi,74.64,84,82,7.14,PH,1638768934,7.9986,124.2928
217,Aguçadoura,50.56,84,71,3.29,PT,1638768934,41.4318,-8.7804
218,Muzhi,-7.85,82,90,7.02,RU,1638768935,65.3667,64.6667
219,Aklavik,5.72,89,66,9.73,CA,1638768935,68.2191,-135.0107
220,San Miguel de Cozumel,77.11,94,11,8.52,MX,1638768694,20.5083,-86.9458
221,Nyurba,-28.86,95,47,5.53,RU,1638768936,63.2842,118.3319
222,Collinsville,57.61,89,90,10.0,US,1638768822,38.6703,-89.9846
223,Camacha,62.02,68,75,12.66,PT,1638768936,33.0833,-16.3333
224,Antonina,75.72,99,89,1.12,BR,1638768937,-25.4286,-48.7119
225,Gomel,26.58,100,90,13.42,BY,1638768937,52.4345,30.9754
226,Chilakalūrupet,82.06,60,5,6.73,IN,1638768938,16.0833,80.1667
227,Buala,79.56,87,100,19.66,SB,1638768938,-8.145,159.5921
228,Sur,77.38,53,0,2.98,OM,1638768939,22.5667,59.5289
229,Faanui,80.98,75,22,14.43,PF,1638768939,-16.4833,-151.75
230,Magán,48.34,89,18,7.94,ES,1638768940,39.9683,-3.931
231,Canavieiras,72.05,91,3,0.92,BR,1638768940,-15.675,-38.9472
232,Troitskoye,27.14,84,100,4.68,RU,1638768940,52.9821,84.6757
233,Leningradskiy,-3.57,96,100,24.2,RU,1638768941,69.3833,178.4167
234,Maïné Soroa,67.87,21,77,9.51,NE,1638768942,13.2114,12.0241
235,Udachny,-22.56,67,79,4.38,RU,1638768942,66.4167,112.4
236,Dom Pedrito,58.48,96,7,5.53,BR,1638768943,-30.9828,-54.6731
237,Cravo Norte,77.16,65,89,5.5,CO,1638768943,6.3017,-70.2041
238,Wainwright,-7.69,95,6,6.31,CA,1638768894,52.839,-110.8572
239,Praia,72.14,78,56,17.27,CV,1638768944,14.9215,-23.5087
240,Biak,83.01,74,100,1.45,ID,1638768944,-0.9131,122.8766
241,Mushie,73.71,94,100,1.79,CD,1638768945,-3.0167,16.9
242,Nanortalik,25.92,61,100,34.52,GL,1638768945,60.1432,-45.2371
243,Marrakesh,41.07,87,0,5.75,MA,1638768946,31.6315,-8.0083
244,Nueva Italia de Ruiz,74.21,52,100,2.51,MX,1638768946,19.0167,-102.1
245,Yukamenskoye,-3.03,96,23,5.46,RU,1638768946,57.8865,52.2416
246,Poum,81.97,74,22,15.57,NC,1638768781,-20.2333,164.0167
247,Victor Harbor,80.19,69,21,4.0,AU,1638768947,-35.5667,138.6167
248,Bambous Virieux,82.65,65,40,13.8,MU,1638768948,-20.3428,57.7575
249,Anchorage,37.63,89,90,5.01,US,1638768741,61.2181,-149.9003
250,Xining,33.03,25,88,2.1,CN,1638768948,36.6167,101.7667
251,Melenki,25.86,91,99,3.24,RU,1638768949,55.3343,41.6295
252,Omboué,75.0,94,100,2.53,GA,1638768949,-1.5746,9.2618
253,Assiut,53.78,61,98,2.95,EG,1638768950,27.181,31.1837
254,Bull Savanna,73.42,86,2,6.87,JM,1638768950,17.8868,-77.5902
255,Kingsville,75.06,94,1,4.0,US,1638768951,27.5159,-97.8561
256,Kirakira,78.6,86,99,9.8,SB,1638768951,-10.4544,161.9205
257,Hof,31.91,96,90,5.75,DE,1638768952,50.3167,11.9167
258,Goderich,41.92,93,100,12.66,CA,1638768952,43.7501,-81.7165
259,Camacupa,63.25,93,100,4.09,AO,1638768952,-12.0167,17.4833
260,Arraial do Cabo,73.53,91,68,17.56,BR,1638768953,-22.9661,-42.0278
261,Ubinskoye,24.31,94,100,8.41,RU,1638768954,55.3068,79.6802
262,Antigonish,27.93,80,80,2.62,CA,1638768954,45.6169,-61.9986
263,Honiara,79.68,88,100,8.77,SB,1638768955,-9.4333,159.95
264,Bandarbeyla,79.93,55,7,16.98,SO,1638768956,9.4942,50.8122
265,Yantal',26.67,93,100,8.43,RU,1638768956,56.8471,105.2542
266,Gijón,53.83,82,99,1.99,ES,1638768957,43.5357,-5.6615
267,Ponta Delgada,61.52,63,75,6.91,PT,1638768785,37.7333,-25.6667
268,Harper,78.58,86,41,7.29,LR,1638768957,4.375,-7.7169
269,Mīzan Teferī,74.93,51,6,0.78,ET,1638768958,6.9833,35.5833
270,Sibolga,86.54,61,72,5.01,ID,1638768958,1.7427,98.7792
271,Estelle,70.0,84,1,9.22,US,1638768921,29.8458,-90.1067
272,Ponta do Sol,65.03,63,15,9.4,PT,1638768959,32.6667,-17.1
273,Piacenza,37.76,83,30,1.9,IT,1638768959,45.0468,9.6994
274,Kanniyākumāri,83.86,69,100,1.72,IN,1638768960,8.0833,77.5667
275,Colesberg,60.35,50,17,15.01,ZA,1638768853,-30.72,25.0972
276,Maun,72.48,64,100,3.6,BW,1638768791,-19.9833,23.4167
277,Saint-Pierre,85.64,60,0,9.22,RE,1638768960,-21.3393,55.4781
278,Saskylakh,-28.19,98,94,5.08,RU,1638768739,71.9167,114.0833
279,Banff,5.38,78,83,4.61,CA,1638768961,51.1762,-115.5698
280,Tarma,51.31,90,100,2.33,PE,1638768961,-11.4197,-75.6908
281,Sabang,81.73,74,89,14.23,ID,1638768662,5.8933,95.3214
282,Saint Paul Harbor,35.11,80,90,13.8,US,1638768787,57.79,-152.4072
283,Saldanha,60.85,85,100,16.26,ZA,1638768962,-33.0117,17.9442
284,Cap Malheureux,82.89,66,22,11.99,MU,1638768963,-19.9842,57.6142
285,Miraflores,59.04,65,83,1.97,MX,1638768963,19.2167,-98.8083
286,Inuvik,5.76,82,20,6.91,CA,1638768953,68.3499,-133.7218
287,Kavieng,84.16,73,92,10.92,PG,1638768964,-2.5744,150.7967
288,Palestine,52.93,81,23,3.4,PS,1638768964,31.9216,35.2033
289,São João da Barra,74.1,88,95,15.39,BR,1638768965,-21.6403,-41.0511
290,Vila Velha,75.15,91,40,4.61,BR,1638768886,-20.3297,-40.2925
291,Isangel,87.91,62,20,5.75,VU,1638768816,-19.55,169.2667
292,La Ronge,-10.95,70,1,5.75,CA,1638768966,55.1001,-105.2842
293,Srednekolymsk,-45.29,99,92,4.25,RU,1638768967,67.45,153.6833
294,Mosquera,50.09,93,20,4.61,CO,1638768967,4.7059,-74.2302
295,Sicuani,46.47,88,100,2.53,PE,1638768968,-14.2694,-71.2261
296,Ferrol,54.36,91,100,11.86,ES,1638768761,43.4832,-8.2369
297,Vao,76.6,82,100,12.62,NC,1638768969,-22.6667,167.4833
298,Camaná,67.19,88,100,5.17,PE,1638768969,-16.6228,-72.7111
299,Dawlatabad,56.08,41,29,6.04,AF,1638768970,36.4141,64.9053
300,Lake Shasta,56.86,63,74,6.73,US,1638768970,40.6804,-122.3708
301,Tautira,82.42,74,80,17.25,PF,1638768971,-17.7333,-149.15
302,Ozernovskiy,34.57,81,100,20.22,RU,1638768971,51.5,156.5167
303,Snezhnogorsk,2.98,77,64,29.57,RU,1638768972,69.1933,33.2531
304,Alanya,51.93,58,0,4.09,TR,1638768972,36.5438,31.9998
305,Baymak,24.84,96,100,3.98,RU,1638768973,52.5933,58.3225
306,Mogadishu,82.27,78,20,11.5,SO,1638768973,2.0371,45.3438
307,Panabá,69.37,95,0,6.51,MX,1638768974,21.2833,-88.2667
308,Kargil,18.21,69,66,1.92,IN,1638768974,34.5667,76.1
309,Acajutla,80.71,64,47,8.19,SV,1638768975,13.5928,-89.8275
310,Port Blair,81.97,58,75,12.97,IN,1638768975,11.6667,92.75
311,Wanning,74.84,52,97,14.58,CN,1638768976,18.8003,110.3967
312,Punta Alta,62.78,70,0,8.9,AR,1638768972,-38.8759,-62.0736
313,Chui,61.7,93,46,5.21,UY,1638768964,-33.6971,-53.4616
314,Longyearbyen,22.84,86,75,14.97,SJ,1638768977,78.2186,15.6401
315,Melo,58.57,97,58,6.42,UY,1638768978,-32.3667,-54.1833
316,Naliya,81.84,23,1,12.68,IN,1638768978,23.2667,68.8333
317,Kot Addu,58.86,29,0,8.3,PK,1638768978,30.4692,70.9671
318,Port-Gentil,75.16,94,90,6.91,GA,1638768979,-0.7193,8.7815
319,Road Town,79.0,68,61,21.61,VG,1638768979,18.4167,-64.6167
320,Sitka,35.49,69,90,5.75,US,1638768894,57.0531,-135.33
321,Bajil,79.23,58,0,2.95,YE,1638768980,15.0584,43.2851
322,Winslow,37.58,52,1,0.0,US,1638768980,35.0242,-110.6974
323,Brownsville,76.98,89,1,4.0,US,1638768975,25.9018,-97.4975
324,Vizianagaram,81.91,71,84,5.08,IN,1638768981,18.1167,83.4167
325,Yeppoon,85.78,70,39,15.7,AU,1638768982,-23.1333,150.7333
326,Raja,77.54,22,96,7.63,SS,1638768982,8.4596,25.678
327,Santa Rosalía,66.09,43,0,3.4,MX,1638768982,27.3167,-112.2833
328,Kununurra,93.18,52,100,6.91,AU,1638768983,-15.7667,128.7333
329,Solnechnyy,19.87,93,85,2.17,RU,1638768983,50.7214,136.6319
330,Nizhnyaya Poyma,32.23,87,100,11.54,RU,1638768984,56.1622,97.1933
331,Nemuro,45.03,75,43,21.3,JP,1638768984,43.3236,145.575
332,Eilat,58.84,44,0,0.0,IL,1638768985,29.5581,34.9482
333,Mar del Plata,61.88,85,40,1.99,AR,1638768985,-38.0023,-57.5575
334,Nantucket,48.31,68,90,14.97,US,1638768843,41.2835,-70.0995
335,Cururupu,74.71,97,68,2.89,BR,1638768986,-1.8283,-44.8683
336,Northam,45.09,88,100,14.16,GB,1638768986,51.0333,-4.2167
337,Noumea,86.0,99,83,11.03,NC,1638768988,-22.2763,166.4572
338,Tiarei,82.42,74,63,16.75,PF,1638768988,-17.5333,-149.3333
339,Ballina,73.36,82,90,9.22,AU,1638768989,-28.8667,153.5667
340,Omsukchan,-33.65,99,27,3.02,RU,1638768989,62.5333,155.8
341,Igarka,-24.36,97,99,14.23,RU,1638768990,67.4667,86.5833
342,São Filipe,75.49,72,62,11.18,CV,1638768990,14.8961,-24.4956
343,Padang,87.85,64,50,7.38,ID,1638768991,-0.9492,100.3543
344,Berck,40.51,100,90,4.61,FR,1638768957,50.4,1.6
345,Rundu,71.49,68,96,5.39,NA,1638768991,-17.9333,19.7667
346,Airai,70.2,77,98,2.39,TL,1638768992,-8.9266,125.4092
347,Umluj,73.63,51,37,9.37,SA,1638768992,25.0213,37.2685
348,San José del Potrero,64.53,98,26,1.59,HN,1638768993,14.8333,-87.2833
349,Niquelândia,68.4,96,5,0.34,BR,1638768993,-14.4739,-48.4597
350,Paraná,70.56,75,18,6.38,AR,1638768994,-31.732,-60.5238
351,Savannah Bight,77.0,78,7,9.71,HN,1638768994,16.45,-85.85
352,Sliven,49.8,92,92,4.76,BG,1638768995,42.6858,26.3292
353,Ust-Tsilma,7.02,93,75,7.34,RU,1638768995,65.441,52.1498
354,Wuwei,38.75,27,51,6.93,CN,1638768996,37.9281,102.6414
355,Los Llanos de Aridane,62.35,72,75,4.0,ES,1638768996,28.6585,-17.9182
356,Trofors,18.75,92,6,5.48,NO,1638768997,65.5333,13.4063
357,Tricase,49.35,81,98,14.74,IT,1638768997,39.9304,18.3553
358,Haines Junction,-2.45,100,100,1.36,CA,1638768998,60.7522,-137.5108
359,Abay,32.38,100,100,10.38,KZ,1638768998,49.6311,72.8539
360,Daru,84.78,66,97,9.19,PG,1638768999,-9.0763,143.2092
361,Lianzhou,70.21,28,40,5.64,CN,1638768998,24.7811,112.3825
362,Anadyr,-3.5,83,90,38.01,RU,1638769000,64.75,177.4833
363,Vágur,41.25,77,100,32.64,FO,1638769000,61.4732,-6.8119
364,Tacna,58.73,94,91,2.46,PE,1638769001,-18.0056,-70.2483
365,Shumyachi,27.52,87,100,6.62,RU,1638769001,53.8583,32.4242
366,Kuandian,37.24,95,100,3.44,CN,1638769001,40.7286,124.7847
367,Keti Bandar,79.97,25,2,8.14,PK,1638769002,24.1447,67.4497
368,Dingle,81.5,73,82,10.6,PH,1638769002,10.9995,122.6711
369,Dunedin,54.81,66,96,3.0,NZ,1638769003,-45.8742,170.5036
370,Yenagoa,77.72,90,100,3.44,NG,1638769003,4.9247,6.2642
371,Southbridge,41.38,71,88,1.99,US,1638769004,42.0751,-72.0334
372,Ust-Nera,-19.21,98,100,5.17,RU,1638769004,64.5667,143.2
373,Aktash,23.68,64,100,3.31,RU,1638769005,50.3,87.7333
374,Samarai,84.13,71,88,13.27,PG,1638769005,-10.6167,150.6667
375,Yakeshi,16.32,89,9,11.16,CN,1638769006,49.2833,120.7333
376,Richards Bay,82.04,64,65,10.76,ZA,1638769006,-28.783,32.0377
377,Denpasar,83.86,83,20,17.27,ID,1638769007,-8.65,115.2167
378,Flinders,71.19,65,100,9.86,AU,1638769007,-34.5833,150.8552
379,Dhubri,77.72,61,52,6.62,IN,1638769008,26.0333,89.9667
380,Murray,45.3,54,1,1.99,US,1638768964,40.6669,-111.888
381,Abalak,8.46,86,100,2.15,RU,1638769008,58.1286,68.5944
382,Torres,70.83,92,99,5.06,BR,1638769009,-29.3353,-49.7269
383,Pitimbu,79.39,79,44,14.29,BR,1638769009,-7.4706,-34.8086
384,Champerico,78.04,74,2,4.41,GT,1638769010,14.3,-91.9167
385,Pevek,-9.63,96,100,17.31,RU,1638769010,69.7008,170.3133
386,Conde,78.26,89,20,6.91,BR,1638769011,-7.2597,-34.9075
387,Calabozo,76.06,72,49,7.05,VE,1638769011,8.9242,-67.4293
388,Žarnovica,36.82,99,100,2.95,SK,1638769012,48.4812,18.7157
389,Coolum Beach,79.34,71,75,8.95,AU,1638769012,-26.5333,153.1
390,São Luiz Gonzaga,65.25,86,8,8.16,BR,1638769013,-28.4083,-54.9608
391,Beringovskiy,-1.57,87,96,13.42,RU,1638768790,63.05,179.3167
392,Pisco,66.25,82,0,10.36,PE,1638769013,-13.7,-76.2167
393,Kothi,77.07,45,1,5.75,IN,1638769014,24.75,80.7833
394,Tambura,81.5,43,97,1.45,SS,1638769014,5.6,27.4667
395,Sept-Îles,9.12,66,20,3.44,CA,1638769014,50.2001,-66.3821
396,Nizwá,72.88,41,0,4.18,OM,1638769015,22.9333,57.5333
397,Atar,65.03,12,100,4.99,MR,1638769015,20.5169,-13.0499
398,Ostrovnoy,11.14,74,92,23.22,RU,1638768749,68.0531,39.5131
399,Havøysund,29.28,89,100,31.83,NO,1638769016,70.9963,24.6622
400,Damietta,60.69,62,30,4.83,EG,1638769016,31.4165,31.8133
401,Siverek,43.41,41,0,3.31,TR,1638769017,37.755,39.3167
402,Fort Nelson,-20.61,76,40,8.05,CA,1638768821,58.8053,-122.7002
403,Margate,39.31,96,100,5.82,GB,1638769018,51.3813,1.3862
404,Huilong,63.99,59,0,4.34,CN,1638769018,31.8111,121.655
405,Coquimbo,57.97,87,70,3.02,CL,1638769019,-29.9533,-71.3436
406,Koronowo,32.54,93,100,11.56,PL,1638769019,53.3137,17.937
407,Pirojpur,70.63,96,100,6.69,BD,1638769020,22.5667,89.9833
408,Killybegs,45.52,68,100,27.54,IE,1638769020,54.6333,-8.45
409,Pulupandan,82.71,69,76,16.84,PH,1638769021,10.5167,122.8167
410,Canindé,78.3,76,35,4.38,BR,1638768803,-4.3589,-39.3117
411,Hirara,78.66,53,40,14.97,JP,1638769021,24.8,125.2833
412,Bhindār,70.05,44,4,8.16,IN,1638769022,24.5,74.1833
413,Egvekinot,-2.56,83,96,18.05,RU,1638769022,66.3167,-179.1667
414,Balabac,84.02,70,73,15.68,PH,1638769023,7.9868,117.0645
415,Cochabamba,56.95,96,90,3.44,BO,1638769023,-17.3895,-66.1568
416,Posevnaya,24.51,90,100,9.48,RU,1638769024,54.3006,83.3297
417,Vostochnyy,26.87,97,100,4.94,RU,1638769024,55.8167,37.8667
418,Aripuanã,72.23,96,100,1.03,BR,1638769025,-9.1667,-60.6333
419,Hammerfest,28.85,74,40,12.66,NO,1638769025,70.6634,23.6821
420,Cherdyn',-16.78,100,96,1.95,RU,1638769025,60.403,56.4787
421,Morón,67.96,86,1,3.0,AR,1638769026,-34.6534,-58.6198
422,Barra do Garças,70.52,97,44,1.14,BR,1638769026,-15.89,-52.2567
423,North Branch,30.29,89,95,21.99,US,1638769027,45.5113,-92.9802
424,Maku,41.13,43,0,2.42,IR,1638769027,39.2911,44.4521
425,Longhua,75.16,18,72,5.55,CN,1638769028,23.6137,114.1919
426,Binzhou,52.27,49,4,18.1,CN,1638769028,37.3667,118.0167
427,Kokopo,81.66,79,60,2.21,PG,1638769029,-4.352,152.2633
428,Havelock,55.35,92,80,5.28,US,1638769029,34.8791,-76.9013
429,Iberia,68.11,91,100,9.57,US,1638769029,29.9502,-91.7507
430,Gautier,68.34,95,98,1.99,US,1638769030,30.3858,-88.6117
431,San Quintín,58.48,86,0,7.9,MX,1638769030,30.4833,-115.95
432,Narasannapeta,79.81,76,61,5.73,IN,1638769031,18.4167,84.05
433,Sfântu Gheorghe,42.26,81,90,2.15,RO,1638769032,45.8667,25.7833
434,Leh,22.91,76,95,4.27,IN,1638769032,34.1667,77.5833
435,Visby,25.05,80,40,6.91,SE,1638769032,57.6409,18.296
436,Tinaquillo,68.36,94,69,3.49,VE,1638769033,9.9186,-68.3047
437,Zhigansk,-25.38,97,100,10.22,RU,1638769033,66.7697,123.3711
438,Husavik,39.11,84,100,12.68,IS,1638768898,66.0449,-17.3389
439,Ilulissat,26.62,50,88,10.36,GL,1638769035,69.2167,-51.1
440,Mount Gambier,69.71,52,19,17.27,AU,1638769035,-37.8333,140.7667
441,Karla,-0.44,85,75,3.44,EE,1638769035,59.3723,24.9275
442,La Rioja,37.49,97,100,9.15,ES,1638769036,42.25,-2.5
443,Ulaangom,14.61,86,100,1.52,MN,1638769036,49.9811,92.0667
444,Santa Vitória do Palmar,62.22,92,44,5.84,BR,1638769017,-33.5189,-53.3681
445,Hambantota,86.34,84,40,2.3,LK,1638769037,6.1241,81.1185
446,Port Macquarie,73.89,69,91,7.18,AU,1638769002,-31.4333,152.9167
447,Pangoa,68.02,99,100,0.51,PE,1638769038,-12.1167,-73.0
448,Baley,19.81,74,16,7.11,RU,1638769038,51.6,116.6333
449,Pontianak,87.78,66,75,9.22,ID,1638769038,-0.0333,109.3333
450,Santa Elena,70.68,79,86,7.61,EC,1638769039,-2.2333,-80.85
451,Alta Floresta,71.42,98,100,0.76,BR,1638769039,-9.8756,-56.0861
452,Moose Factory,10.4,85,90,6.91,CA,1638769040,51.2585,-80.6094
453,Broken Hill,80.31,24,40,6.91,AU,1638769040,-31.95,141.4333
454,Šibenik,44.26,68,86,8.01,HR,1638768746,43.7272,15.9058
455,Nabire,91.24,58,85,7.38,ID,1638769041,-3.3667,135.4833
456,Ossora,11.26,82,75,3.89,RU,1638769041,59.2353,163.0719
457,Ilhéus,70.74,94,17,2.39,BR,1638769042,-14.7889,-39.0494
458,Zelenodolsk,15.91,75,35,4.72,RU,1638769042,55.8438,48.5178
459,Krasnyy Chikoy,26.51,67,22,0.36,RU,1638769043,50.3643,108.7512
460,Biu,67.68,25,81,7.45,NG,1638769043,10.6129,12.1946
461,Houma,70.0,93,100,5.99,US,1638769044,29.5958,-90.7195
462,Miles City,10.51,78,75,5.75,US,1638768791,46.4083,-105.8406
463,Ciudad Juárez,62.11,27,1,5.75,MX,1638769045,31.7333,-106.4833
464,Batticaloa,82.8,72,5,4.7,LK,1638769045,7.7102,81.6924
465,Giohar,82.44,58,13,13.04,SO,1638769046,2.7809,45.5005
466,Kavaratti,80.98,69,76,12.3,IN,1638769046,10.5669,72.642
467,Riviere-au-Renard,15.8,60,93,8.48,CA,1638769047,48.9957,-64.3971
468,Zaraza,70.81,93,60,2.57,VE,1638769047,9.3503,-65.3245
469,Melfort,-14.67,70,23,12.66,CA,1638769048,52.8667,-104.6177
470,Nara,58.32,75,100,3.94,JP,1638769048,34.6851,135.8049
471,La Libertad,70.75,80,83,8.19,EC,1638769048,-2.2333,-80.9
472,Asău,32.95,82,100,2.84,RO,1638769049,46.4333,26.4
473,Mahon,46.96,76,40,8.05,ES,1638769049,39.8885,4.2658
474,Bartica,75.52,99,99,0.98,GY,1638769050,6.4,-58.6167
475,Iqaluit,10.13,72,90,13.0,CA,1638769051,63.7506,-68.5145
476,Eydhafushi,82.78,71,21,8.84,MV,1638769051,5.1033,73.0708
477,Ikare,69.55,64,40,2.17,NG,1638769052,7.4913,5.2322
478,Barra dos Coqueiros,77.02,88,75,9.22,BR,1638769000,-10.9089,-37.0386
479,Blythe,63.05,19,1,3.44,US,1638769053,33.6103,-114.5964
480,Doha,69.78,54,0,5.75,QA,1638768802,25.2867,51.5333
481,Leshukonskoye,3.4,92,37,5.35,RU,1638769054,64.8989,45.7622
482,Luanda,77.72,83,100,5.75,AO,1638769054,-8.8368,13.2343
483,Valparaíso,56.39,93,7,5.84,CL,1638768988,-33.0393,-71.6273
484,Tuatapere,55.81,58,71,8.9,NZ,1638769055,-46.1333,167.6833
485,Kamaishi,43.75,74,49,11.1,JP,1638769056,39.2667,141.8833
486,Deputatsky,-20.36,99,100,0.58,RU,1638769056,69.3,139.9
487,Morant Bay,80.22,84,13,10.76,JM,1638769057,17.8815,-76.4093
488,Cabo San Lucas,75.51,72,100,5.41,MX,1638768835,22.8909,-109.9124
489,Lethem,76.35,82,97,9.37,GY,1638769057,3.3803,-59.7968
490,Heraclea,44.76,53,0,2.51,TR,1638769058,37.5133,34.0467
491,Tual,83.95,75,100,12.3,ID,1638769058,-5.6667,132.75
492,Rājāpur,78.73,43,2,3.62,IN,1638769058,25.3833,81.15
493,Guerrero Negro,61.18,89,0,9.35,MX,1638769059,27.9769,-114.0611
494,Nelson Bay,73.45,64,100,10.51,AU,1638769059,-32.7167,152.15
495,Wanaka,54.1,66,100,5.99,NZ,1638769060,-44.7,169.15
496,Béjar,39.58,96,69,3.87,ES,1638769060,40.3864,-5.7634
497,Kalmunai,84.02,68,13,4.85,LK,1638769061,7.4167,81.8167
498,Paphos,53.51,76,20,10.36,CY,1638769061,34.7667,32.4167
499,Faya,57.72,28,0,3.53,SA,1638769061,18.3851,42.4509
500,Edgewater,69.1,89,70,4.27,US,1638769062,28.9889,-80.9023
501,Cayenne,77.09,92,75,1.14,GF,1638769062,4.9333,-52.3333
502,Verkhnevilyuysk,-27.04,92,96,5.57,RU,1638769063,63.4453,120.3167
503,Vardø,14.2,78,88,21.41,NO,1638769063,70.3705,31.1107
504,Nishihara,74.86,50,40,16.11,JP,1638769064,26.1842,127.7558
505,Phalombe,80.65,54,89,8.21,MW,1638769064,-15.8064,35.6507
506,Nuuk,25.41,80,75,17.27,GL,1638769065,64.1835,-51.7216
507,Tigil',23.85,83,100,24.58,RU,1638769065,57.8,158.6667
508,Marabu,78.94,89,40,10.36,MY,1638769066,4.4148,114.0089
509,Slave Lake,5.38,65,0,2.89,CA,1638769066,55.2834,-114.769
510,Buchanan,77.59,85,62,3.22,LR,1638769067,5.8808,-10.0467
511,Zonguldak,38.25,75,8,4.94,TR,1638769067,41.25,31.8333
512,Baykit,1.06,90,100,1.92,RU,1638769068,61.67,96.37
513,Tessalit,60.75,20,23,8.12,ML,1638769068,20.1986,1.0114
514,Pimentel,65.17,88,100,9.46,PE,1638769069,-6.8367,-79.9342
515,Vila Franca do Campo,61.21,84,26,1.9,PT,1638769069,37.7167,-25.4333
516,Liku,86.72,66,91,9.93,ID,1638769070,-0.7275,119.8922
517,Xixiang,58.15,21,9,6.82,CN,1638769070,35.1628,112.865
518,Winnemucca,30.25,69,1,5.75,US,1638769071,40.973,-117.7357
519,Novozaimka,21.04,94,100,2.24,RU,1638769071,56.4857,66.9241
520,Shaowu,65.5,43,0,1.52,CN,1638769072,27.3409,117.4831
521,Bang Saphan,85.95,63,62,11.79,TH,1638769072,11.2126,99.5117
522,High Level,-30.89,75,1,0.0,CA,1638769072,58.5169,-117.136
523,Tegul'det,30.94,89,100,12.8,RU,1638769073,57.3064,88.1667
524,Alamosa,33.31,49,1,3.44,US,1638769073,37.4695,-105.87
525,Zhuhai,76.91,49,0,11.5,CN,1638768932,22.2769,113.5678
526,Hailey,30.06,47,1,4.61,US,1638768789,43.5196,-114.3153
527,Achalpur,81.72,35,0,2.73,IN,1638769074,21.2572,77.5086
528,St. George's,80.28,74,20,11.5,GD,1638769075,12.0564,-61.7485
529,Jericó,60.71,99,100,1.48,CO,1638769075,5.7921,-75.786
530,Tierra Nueva,58.37,50,100,1.72,MX,1638769076,21.6833,-100.5667
531,Konakovo,15.26,94,100,6.31,RU,1638769076,56.7,36.7667
532,Kamenka,28.22,63,100,7.56,RU,1638769076,51.3223,42.7678
533,Nesna,17.71,93,19,19.98,NO,1638769077,66.1967,13.0213
534,Viedma,63.23,48,0,12.01,AR,1638769077,-40.8135,-62.9967
535,San Rafael,66.24,71,1,5.03,AR,1638769044,-34.6177,-68.3301
536,Hong Kong,77.18,45,62,1.01,HK,1638769042,22.2855,114.1577
537,Olafsvik,41.16,74,95,21.97,IS,1638769078,64.8945,-23.7142
538,Rominimbang,78.1,69,62,5.08,PH,1638769079,7.5,124.3
539,Itiruçu,61.18,99,28,2.06,BR,1638769079,-13.5317,-40.1503
540,Seoul,52.99,37,0,2.3,KR,1638769080,37.5683,126.9778
541,Tingo María,68.92,98,100,0.67,PE,1638769080,-9.2895,-76.0088
542,Manta,73.18,88,75,11.5,EC,1638769080,-0.95,-80.7333
543,Arman',-11.25,83,6,6.78,RU,1638769081,59.7,150.1667
544,Söderhamn,14.99,86,98,5.19,SE,1638769081,61.3037,17.0592
545,Wyndham,49.78,74,90,1.01,US,1638769082,37.6985,-77.6125
546,Vuktyl,-2.47,97,93,2.42,RU,1638769082,63.8567,57.3094
547,Iquique,65.23,68,100,1.77,CL,1638769083,-20.2208,-70.1431
548,Māngrol,80.76,45,0,9.51,IN,1638769084,21.1167,70.1167
549,Chipata,79.92,44,13,12.8,ZM,1638769084,-13.6333,32.65
550,Zarubino,39.47,65,58,5.66,RU,1638769084,42.63,131.0922
551,Limulunga,75.42,65,84,2.01,ZM,1638769085,-15.0969,23.1376
552,Gnjilane,46.72,89,95,2.46,XK,1638769086,42.4604,21.4699
553,Nālchiti,70.48,97,100,7.18,BD,1638769086,22.6333,90.2833
554,Muli,83.03,74,19,14.99,MV,1638769086,2.9167,73.5667
555,Killam,-2.61,77,16,8.05,CA,1638769087,52.7834,-111.8518
556,Mareeba,90.45,48,12,9.13,AU,1638769087,-17.0,145.4333
557,Caravelas,72.61,91,4,4.74,BR,1638769088,-17.7125,-39.2481
558,Hay River,-20.22,76,1,4.61,CA,1638769088,60.8156,-115.7999
559,Choya,33.8,74,99,2.64,RU,1638769089,52.0108,86.5467
560,Saint Anthony,30.65,80,90,5.01,US,1638768948,45.0205,-93.218
561,Naze,68.92,59,90,12.93,JP,1638769089,28.3667,129.4833
562,Saint-Augustin,19.29,67,5,8.86,CA,1638769090,51.226,-58.6502
563,Rosario,67.95,78,0,1.01,AR,1638769090,-32.9468,-60.6393
564,Hukuntsi,74.19,58,0,8.84,BW,1638769091,-24.0,21.75
565,Beira,82.49,83,20,1.14,MZ,1638769091,-19.8436,34.8389
566,Altay,32.11,65,58,3.69,CN,1638769092,47.8667,88.1167
567,Shumskiy,30.74,68,97,2.46,RU,1638769092,54.8318,99.1328
568,Berlevåg,27.93,91,98,18.9,NO,1638769093,70.8578,29.0864
569,San Fernando,87.89,46,32,9.15,PH,1638769093,15.0286,120.6898
570,Itarema,80.67,79,58,15.5,BR,1638769094,-2.9248,-39.9167
571,Punta Cardon,79.07,84,85,23.71,VE,1638769094,11.6581,-70.215
572,Talara,66.52,87,100,14.09,PE,1638769094,-4.5772,-81.2719
573,Buin,74.73,65,0,1.12,CL,1638769095,-33.7333,-70.75
574,Torrington,48.15,75,93,3.96,US,1638769095,41.8007,-73.1212
575,Srīvardhan,80.83,63,2,2.68,IN,1638769096,18.0333,73.0167
576,Mayor Pablo Lagerenza,69.89,87,100,4.09,PY,1638769096,-19.9309,-60.7718
577,Manzanares,37.62,88,21,7.23,ES,1638769097,38.9991,-3.3699
578,Byron Bay,76.95,80,75,7.81,AU,1638769097,-28.65,153.6167
579,Tombouctou,56.84,21,90,9.8,ML,1638769098,20.0,-3.0
580,Três Lagoas,74.5,72,18,2.46,BR,1638769098,-20.7511,-51.6783
581,Comodoro Rivadavia,57.06,82,0,13.8,AR,1638769099,-45.8667,-67.5
582,Mutsu,50.0,64,49,5.39,JP,1638769099,41.2894,141.2169
583,Mossamedes,72.41,66,9,2.55,AO,1638769100,-15.1961,12.1522
584,Mogzon,25.39,61,39,8.34,RU,1638769100,51.7435,111.9606
585,Pihuamo,66.78,80,100,2.98,MX,1638769101,19.2499,-103.3828
586,Gīdolē,64.65,41,9,4.81,ET,1638769101,5.65,37.3667
587,Krishnapur,75.02,94,90,11.5,IN,1638769102,22.6703,88.2694
588,Rafaela,70.05,88,2,6.64,AR,1638769102,-31.2503,-61.4867
589,Tommot,3.69,90,100,5.82,RU,1638769103,58.9564,126.2925
